name,population,elderly_ratio,business_count,vacant_house,medical_facility,lat,lng
여주읍,46782,18.5,1823,87,34,37.2986,127.6359
가남읍,15234,28.3,487,142,12,37.2242,127.5456
점동면,4567,35.2,123,203,3,37.2376,127.7126
흥천면,8921,31.7,256,168,6,37.3467,127.5587
금사면,3842,38.1,98,241,2,37.3213,127.7215
산북면,5673,33.4,145,189,4,37.3574,127.6234
대신면,6218,29.8,178,156,5,37.2145,127.6123
북내면,7345,26.5,213,131,7,37.3723,127.6785
